[{"__v":0,"_id":"541c8faad42c0a971ae77115","active":true,"address1":"35 winterberry street","city":"Bedford","country":"U.S.A.","lat":42.4988261,"lng":-71.3023096,"name":"Dealer 001","phone":"1111111111","state":"MA","website":"winterbery.tonidobit.com","zip":"01730"},{"__v":0,"_id":"541c8faad42c0a971ae77116","active":true,"address1":"7 Gleason Road","city":"Bedford","country":"U.S.A.","lat":42.4892736,"lng":-71.3145334,"name":"Dealer 002","phone":"2222222222","state":"MA","website":"winterbery.tonidobit.com","zip":"01730"},{"__v":0,"_id":"541c8faad42c0a971ae77118","active":true,"address1":"62 Notre Dame Road","city":"Bedford","country":"U.S.A.","lat":42.4901725,"lng":-71.3046215,"name":"Dealer 004","phone":"4444444444","state":"MA","website":"winterbery.tonidobit.com","zip":"01730"},{"__v":0,"_id":"541c8faad42c0a971ae77117","active":true,"address1":"1 Russett Road","city":"Bedford","country":"U.S.A.","lat":42.44817219999999,"lng":-71.3207225,"name":"Dealer 003","phone":"3333333333","state":"MA","website":"winterbery.tonidobit.com","zip":"01730"}]